$GPGSA,A,3,28,03,22,01,42,195,50,194,193,30,11,17,1.2,0.6,1.0*02
$GPGSV,4,1,16,01,23,040,37,03,51,072,35,06,35,258,39,08,06,099,40*70
$GPGSV,4,2,16,11,20,059,30,17,40,329,27,19,28,313,32,22,33,052,38*74
$GPGSV,4,3,16,23,07,121,44,28,82,305,42,30,20,207,37,42,51,133,37*7A
$GPGSV,4,4,16,50,51,133,38,193,47,133,41,194,36,174,44,195,66,053,40*4D
$GSENSORD,0.180,0.430,-0.180
$GPRMC,023931.000,A,2447.7951,N,12101.9189,E,45.44,116.17,100819,,,A*51
$GPGGA,023931.000,2447.7951,N,12101.9189,E,1,12,0.6,54.5,M,16.3,M,,0000*66
$GPGSA,A,3,28,03,22,01,42,195,50,194,193,30,11,17,1.2,0.6,1.0*02
$GPGSV,4,1,16,01,23,040,36,03,51,072,35,06,35,258,39,08,06,099,39*7F
$GPGSV,4,2,16,11,20,059,41,17,40,329,27,19,28,313,32,22,33,052,37*7D
$GPGSV,4,3,16,23,07,121,44,28,82,305,42,30,20,207,35,42,51,133,37*78
$GPGSV,4,4,16,50,51,133,38,193,47,133,40,194,36,174,43,195,66,053,40*4B
$GSENSORD,0.180,0.430,-0.120
$GPRMC,023932.000,A,2447.7896,N,12101.9313,E,45.06,116.17,100819,,,A*5F
$GPGGA,023932.000,2447.7896,N,12101.9313,E,1,12,0.6,54.7,M,16.3,M,,0000*6C
$GPGSA,A,3,28,03,22,01,42,195,50,194,193,30,11,17,1.2,0.6,1.0*02
$GPGSV,4,1,16,01,23,040,36,03,51,072,35,06,35,258,40,08,06,099,41*7E
$GPGSV,4,2,16,11,20,059,42,17,40,329,27,19,28,313,32,22,33,052,37*7E
$GPGSV,4,3,16,23,07,121,44,28,82,305,42,30,19,207,36,42,51,133,36*70
$GPGSV,4,4,16,50,51,133,38,193,47,133,41,194,36,174,44,195,66,053,41*4C
$GSENSORD,0.000,0.430,-0.120
$GPRMC,023933.000,A,2447.7841,N,12101.9436,E,44.72,115.96,100819,,,A*5C
$GPGGA,023933.000,2447.7841,N,12101.9436,E,1,12,0.6,54.9,M,16.3,M,,0000*69
$GPGSA,A,3,28,03,22,01,42,195,50,194,193,30,11,17,1.2,0.6,1.0*02
$GPGSV,4,1,16,01,23,040,37,03,51,072,34,06,35,258,39,09,04,157,45*74
$GPGSV,4,2,16,11,20,059,42,17,40,329,27,19,28,313,32,22,33,052,37*7E
$GPGSV,4,3,16,23,07,121,46,28,82,305,42,30,19,207,36,42,51,133,37*73
$GPGSV,4,4,16,50,51,133,38,193,47,133,41,194,36,174,44,195,66,053,40*4D
$GSENSORD,0.060,0.000,0.000
$GPRMC,023934.000,A,2447.7788,N,12101.9558,E,44.39,115.56,100819,,,A*5B
$GPGGA,023934.000,2447.7788,N,12101.9558,E,1,12,0.6,55.0,M,16.3,M,,0000*65
$GPGSA,A,3,28,03,22,01,42,195,50,194,193,30,11,17,1.2,0.6,1.0*02
$GPGSV,4,1,16,01,23,040,36,03,51,072,35,06,35,258,38,08,06,099,38*7F
$GPGSV,4,2,16,11,20,059,42,17,40,329,27,19,28,313,33,22,33,052,38*70
$GPGSV,4,3,16,23,07,121,47,28,82,305,42,30,19,207,32,42,51,133,37*76
$GPGSV,4,4,16,50,51,133,38,193,47,133,41,194,36,174,44,195,66,053,39*43
$GSENSORD,0.060,0.500,-0.180
$GPRMC,023935.000,A,2447.7735,N,12101.9680,E,44.16,115.27,100819,,,A*51
$GPGGA,023935.000,2447.7735,N,12101.9680,E,1,12,0.6,55.2,M,16.3,M,,0000*66
$GPSDC
$GPGSA,A,3,28,03,22,01,42,195,50,194,193,30,11,17,1.2,0.6,1.0*02
$GPGSV,4,1,16,01,23,040,36,03,51,072,35,06,35,258,39,08,06,099,38*7E
$GPGSV,4,2,16,11,20,059,41,17,40,329,26,19,28,313,33,22,33,052,37*7D
$GPGSV,4,3,16,23,07,121,46,28,82,305,42,30,19,207,32,42,51,133,37*77
$GPGSV,4,4,16,50,51,133,38,193,47,133,41,194,36,174,44,195,66,053,41*4C
$GSENSORD,0.120,0.430,-0.120
$GPRMC,023936.000,A,2447.7683,N,12101.9801,E,43.72,115.15,100819,,,A*5D
$GPGGA,023936.000,2447.7683,N,12101.9801,E,1,12,0.6,55.3,M,16.3,M,,0000*6F
$GPSDC
$GPGSA,A,3,28,03,22,01,42,195,50,194,193,30,11,17,1.2,0.6,1.0*02
$GPGSV,4,1,16,01,23,040,36,03,51,072,35,06,35,258,39,08,06,099,40*71
$GPGSV,4,2,16,11,20,059,41,17,40,329,25,19,28,313,33,22,33,052,38*71
$GPGSV,4,3,16,23,07,121,47,28,82,305,43,30,19,207,33,42,51,133,36*77
$GPGSV,4,4,16,50,51,133,38,193,47,133,42,194,36,174,45,195,66,053,41*4E
$GSENSORD,0.060,0.500,-0.180
$GPRMC,023937.000,A,2447.7632,N,12101.9920,E,43.01,115.20,100819,,,A*56
$GPGGA,023937.000,2447.7632,N,12101.9920,E,1,12,0.6,55.4,M,16.3,M,,0000*61
$GPSDC
$GPGSA,A,3,28,03,22,01,42,195,50,194,193,30,11,17,1.2,0.6,1.0*02
$GPGSV,4,1,16,01,23,040,36,03,51,072,35,06,35,258,39,09,04,157,43*72
$GPGSV,4,2,16,11,20,059,42,17,40,329,26,19,28,313,34,22,33,052,38*76
$GPGSV,4,3,16,23,07,121,45,28,82,305,43,30,19,207,36,42,51,133,37*71
$GPGSV,4,4,16,50,51,133,38,193,47,133,42,194,36,174,45,195,66,053,41*4E
$GSENSORD,0.060,0.370,-0.120
$GPRMC,023938.000,A,2447.7582,N,12102.0038,E,42.51,114.90,100819,,,A*55
$GPGGA,023938.000,2447.7582,N,12102.0038,E,1,12,0.6,55.6,M,16.3,M,,0000*6E
$GPSDC
$GPGSA,A,3,28,03,22,01,42,195,50,194,193,30,11,17,1.2,0.6,1.0*02
$GPGSV,4,1,16,01,23,040,34,03,51,072,33,06,35,258,35,08,06,099,37*79
$GPGSV,4,2,16,11,20,059,37,17,40,329,26,19,28,313,31,22,33,052,33*7A
$GPGSV,4,3,16,23,07,121,41,28,82,305,38,30,19,207,28,42,51,133,34*75
$GPGSV,4,4,16,50,51,133,34,193,47,133,36,194,36,174,40,195,66,053,37*45
$GSENSORD,0.060,0.500,0.000
$GPRMC,023939.000,A,2447.7532,N,12102.0155,E,42.27,115.18,100819,,,A*55
$GPGGA,023939.000,2447.7532,N,12102.0155,E,1,12,0.6,55.7,M,16.3,M,,0000*6F
$GPSDC
$GPGSA,A,3,28,03,22,01,42,195,50,194,193,30,11,17,1.2,0.6,1.0*02
$GPGSV,4,1,16,01,23,040,37,03,51,072,34,06,35,258,40,08,06,099,41*7E
$GPGSV,4,2,16,11,20,059,41,17,40,329,26,19,28,313,32,22,33,052,36*7D
$GPGSV,4,3,16,23,07,121,45,28,82,305,42,30,19,207,33,42,51,133,36*74
$GPGSV,4,4,16,50,51,133,39,193,47,133,40,194,36,174,44,195,66,053,41*4C
$GSENSORD,0.060,0.430,-0.120
$GPRMC,023940.000,A,2447.7482,N,12102.0272,E,42.38,115.10,100819,,,A*51
$GPGGA,023940.000,2447.7482,N,12102.0272,E,1,12,0.6,55.9,M,16.3,M,,0000*63
$GPSDC
$GPGSA,A,3,28,03,22,01,42,195,50,194,193,30,11,17,1.2,0.6,1.0*02
$GPGSV,4,1,16,01,23,040,37,03,51,072,35,06,35,258,40,08,06,099,44*7A
$GPGSV,4,2,16,11,20,059,42,17,40,329,25,19,28,313,33,22,33,052,39*73
$GPGSV,4,3,16,23,07,121,47,28,82,305,43,30,19,207,35,42,51,133,38*7F
$GPGSV,4,4,16,50,51,133,39,193,47,133,41,194,36,174,45,195,66,053,42*4F
$GSENSORD,0.180,0.430,-0.180
$GPRMC,023941.000,A,2447.7432,N,12102.0389,E,42.53,115.03,100819,,,A*51
$GPGGA,023941.000,2447.7432,N,12102.0389,E,1,12,0.6,56.0,M,16.3,M,,0000*66
$GPSDC
$GPGSA,A,3,28,03,22,01,42,195,50,194,193,30,11,17,1.2,0.6,1.0*02
$GPGSV,4,1,16,01,23,040,37,03,51,072,36,06,35,258,40,08,06,099,41*7C
$GPGSV,4,2,16,11,20,059,41,17,40,329,26,19,28,313,34,22,33,052,38*75
$GPGSV,4,3,16,23,07,121,46,28,82,305,43,30,19,207,34,42,51,133,38*7F
$GPGSV,4,4,16,50,51,133,39,193,47,133,42,194,36,174,45,195,66,053,42*4C
$GSENSORD,0.060,0.430,-0.120
$GPRMC,023942.000,A,2447.7381,N,12102.0507,E,42.62,115.16,100819,,,A*5B
$GPGGA,023942.000,2447.7381,N,12102.0507,E,1,12,0.6,56.1,M,16.3,M,,0000*6B
$GPSDC
$GPGSA,A,3,28,03,22,01,42,195,50,194,193,30,11,17,1.2,0.6,1.0*02
$GPGSV,4,1,16,01,23,040,37,03,51,072,34,06,35,258,39,09,04,157,45*74
$GPGSV,4,2,16,11,20,059,43,17,40,329,26,19,28,313,34,22,33,052,38*77
$GPGSV,4,3,16,23,07,121,46,28,82,305,43,30,19,207,37,42,51,133,38*7C
$GPGSV,4,4,16,50,51,133,39,193,47,133,41,194,36,174,45,195,66,053,42*4F
$GSENSORD,0.060,0.500,-0.120
$GPRMC,023943.000,A,2447.7331,N,12102.0624,E,42.42,115.27,100819,,,A*53
$GPGGA,023943.000,2447.7331,N,12102.0624,E,1,12,0.6,56.3,M,16.3,M,,0000*61
$GPSDC
$GPGSA,A,3,28,03,22,01,42,195,50,194,193,30,11,17,1.2,0.6,1.0*02
$GPGSV,4,1,16,01,23,040,37,03,51,072,36,06,35,258,40,08,06,099,44*79
$GPGSV,4,2,16,11,20,059,43,17,40,329,27,19,28,313,34,22,33,052,40*79
$GPGSV,4,3,16,23,07,121,43,28,82,305,43,30,19,207,37,42,51,133,37*76
$GPGSV,4,4,16,50,51,133,39,193,47,133,42,194,36,174,45,195,66,053,41*4F
$GSENSORD,0.120,0.430,-0.060
$GPRMC,023944.000,A,2447.7280,N,12102.0741,E,42.16,115.32,100819,,,A*58
$GPGGA,023944.000,2447.7280,N,12102.0741,E,1,12,0.6,56.4,M,16.3,M,,0000*68
$GPSDC
$GPGSA,A,3,28,03,22,01,42,195,50,194,193,30,11,17,1.2,0.6,0.9*0A
$GPGSV,4,1,16,01,23,040,37,03,51,072,39,06,35,258,40,08,06,099,43*71
$GPGSV,4,2,16,09,04,157,41,11,20,059,43,17,40,329,26,19,28,313,34*70
$GPGSV,4,3,16,22,33,052,39,28,82,305,43,30,19,207,33,42,51,133,36*7D
$GPGSV,4,4,16,50,51,133,39,193,47,133,42,194,36,174,44,195,66,053,42*4D
$GSENSORD,0.250,0.430,-0.180
$GPRMC,023945.000,A,2447.7230,N,12102.0856,E,41.69,115.54,100819,,,A*50
$GPGGA,023945.000,2447.7230,N,12102.0856,E,1,12,0.6,56.5,M,16.3,M,,0000*6A
$GPSDC
$GPGSA,A,3,28,03,22,01,42,195,50,194,193,30,11,17,1.2,0.6,0.9*0A
$GPGSV,4,1,16,01,23,040,39,03,51,072,39,06,35,258,40,08,06,099,38*73
$GPGSV,4,2,16,09,04,157,35,11,20,059,43,17,40,329,26,19,28,313,34*73
$GPGSV,4,3,16,22,33,052,39,28,82,305,43,30,19,207,34,42,51,133,37*7B
$GPGSV,4,4,16,50,51,133,39,193,47,133,41,194,36,174,45,195,66,053,41*4C
$GSENSORD,0.120,0.370,-0.120
$GPRMC,023946.000,A,2447.7181,N,12102.0969,E,41.06,115.64,100819,,,A*5D
$GPGGA,023946.000,2447.7181,N,12102.0969,E,1,12,0.6,56.7,M,16.3,M,,0000*6F
$GPSDC
$GPGSA,A,3,28,03,22,01,42,195,50,194,193,30,11,17,1.2,0.6,1.0*02
$GPGSV,4,1,16,01,23,040,36,03,51,072,35,06,35,258,40,07,04,180,36*7A
$GPGSV,4,2,16,09,04,157,33,11,20,059,42,17,40,329,26,19,28,313,33*73
$GPGSV,4,3,16,22,33,052,39,28,82,305,43,30,19,207,34,42,51,133,38*74
$GPGSV,4,4,16,50,51,133,39,193,47,133,41,194,36,174,44,195,66,053,41*4D
$GSENSORD,0.060,0.430,-0.120
$GPRMC,023947.000,A,2447.7132,N,12102.1081,E,40.47,115.65,100819,,,A*5F
$GPGGA,023947.000,2447.7132,N,12102.1081,E,1,12,0.6,56.8,M,16.3,M,,0000*67
$GPSDC
$GPGSA,A,3,28,03,22,01,42,195,50,194,193,30,11,17,1.2,0.6,1.0*02
$GPGSV,4,1,16,01,23,040,37,03,51,072,36,06,35,258,40,07,04,180,38*76
$GPGSV,4,2,16,11,20,059,42,17,40,329,26,19,28,313,33,22,33,052,39*70
$GPGSV,4,3,16,23,07,121,39,28,82,305,43,30,19,207,33,42,51,133,38*70
$GPGSV,4,4,16,50,51,133,39,193,47,133,41,194,36,174,45,195,66,053,41*4C
$GSENSORD,0.000,0.430,-0.180
$GPRMC,023948.000,A,2447.7084,N,12102.1191,E,39.64,115.42,100819,,,A*56
$GPGGA,023948.000,2447.7084,N,12102.1191,E,1,12,0.6,56.8,M,16.3,M,,0000*64
$GPSDC
$GPGSA,A,3,28,03,22,01,42,195,50,194,193,30,11,17,1.2,0.6,1.0*02
$GPGSV,4,1,16,01,23,040,38,03,51,072,36,06,35,258,40,07,04,180,40*76
$GPGSV,4,2,16,11,20,059,43,17,40,329,25,19,28,313,33,22,33,052,39*72
$GPGSV,4,3,16,23,07,121,32,28,82,305,43,30,19,207,36,42,51,133,38*7E
$GPGSV,4,4,16,50,51,133,39,193,47,133,42,194,36,174,45,195,66,053,41*4F
$GSENSORD,0.060,0.430,-0.120
$GPRMC,023949.000,A,2447.7036,N,12102.1299,E,39.00,115.78,100819,,,A*5E
$GPGGA,023949.000,2447.7036,N,12102.1299,E,1,12,0.6,56.9,M,16.3,M,,0000*66
$GPSDC
$GPGSA,A,3,28,03,22,01,42,195,50,194,193,30,11,17,1.2,0.6,1.0*02
$GPGSV,4,1,16,01,23,040,37,03,51,072,36,06,35,258,39,08,06,099,31*75
$GPGSV,4,2,16,11,20,059,43,17,40,329,26,19,28,313,33,22,33,052,40*7F
$GPGSV,4,3,16,23,07,121,32,28,82,305,43,30,19,207,33,42,51,133,36*75
$GPGSV,4,4,16,50,51,133,39,193,47,133,42,194,36,174,44,195,66,053,41*4E
$GSENSORD,0.060,0.430,-0.250
$GPRMC,023950.000,A,2447.6989,N,12102.1405,E,38.25,116.10,100819,,,A*52
$GPGGA,023950.000,2447.6989,N,12102.1405,E,1,12,0.6,57.1,M,16.3,M,,0000*68
$GPSDC
$GPGSA,A,3,28,03,22,01,42,195,50,194,193,30,11,17,1.2,0.6,1.0*02
$GPGSV,4,1,16,01,23,040,37,03,51,072,36,06,35,258,40,07,04,180,37*79
$GPGSV,4,2,16,11,20,059,41,17,40,329,26,19,28,313,33,22,33,052,36*7C
$GPGSV,4,3,16,23,07,121,32,28,82,305,43,30,19,207,35,42,51,133,36*73
$GPGSV,4,4,16,50,51,133,39,193,47,133,41,194,36,174,43,195,66,053,40*4B
$GSENSORD,0.060,0.430,-0.120
$GPRMC,023951.000,A,2447.6943,N,12102.1509,E,37.77,116.15,100819,,,A*55
$GPGGA,023951.000,2447.6943,N,12102.1509,E,1,12,0.6,57.2,M,16.3,M,,0000*61
$GPSDC
$GPGSA,A,3,28,03,22,01,42,195,50,194,193,30,11,17,1.2,0.6,1.0*02
$GPGSV,4,1,16,01,23,040,32,03,51,072,37,06,35,258,41,08,06,099,34*7B
$GPGSV,4,2,16,11,20,059,40,17,40,329,27,19,28,313,33,22,33,052,29*72
$GPGSV,4,3,16,23,07,121,31,28,82,305,43,30,19,207,32,42,51,133,36*77
$GPGSV,4,4,16,50,51,133,39,193,47,133,39,194,36,174,44,195,66,053,40*43
$GSENSORD,0.120,0.430,-0.180
$GPRMC,023952.000,A,2447.6897,N,12102.1611,E,37.17,116.08,100819,,,A*5E
$GPGGA,023952.000,2447.6897,N,12102.1611,E,1,12,0.7,57.4,M,16.3,M,,0000*67
$GPSDC
$GPGSA,A,3,28,03,22,01,42,195,50,194,193,30,17,06,1.1,0.7,0.9*0E
$GPGSV,4,1,16,01,23,040,25,03,51,072,30,06,35,258,41,07,04,180,25*7E
$GPGSV,4,2,16,08,06,099,35,09,04,157,21,19,28,313,33,22,33,052,21*7A
$GPGSV,4,3,16,23,07,121,32,28,82,305,43,30,19,207,37,42,51,133,29*7F
$GPGSV,4,4,16,50,51,133,26,193,47,133,35,194,36,174,32,195,66,053,34*43
$GSENSORD,0.120,0.500,-0.120
$GPRMC,023953.000,A,2447.6852,N,12102.1715,E,37.85,114.96,100819,,,A*5D
$GPGGA,023953.000,2447.6852,N,12102.1715,E,1,12,0.7,57.7,M,16.3,M,,0000*69
$GPSDC
$GPGSA,A,3,28,03,22,01,195,194,193,30,06,07,19,08,1.2,0.7,1.0*07
$GPGSV,4,1,16,01,23,040,24,03,51,072,21,06,35,258,27,07,04,180,22*78
$GPGSV,4,2,16,08,06,099,39,09,04,157,21,11,20,059,24,17,40,329,21*70
$GPGSV,4,3,16,19,28,313,24,22,33,052,29,23,07,121,38,28,82,305,23*78
$GPGSV,4,4,16,30,19,207,17,193,47,133,24,194,36,174,23,195,66,053,21*4B
$GSENSORD,0.180,0.430,-0.180
$GPRMC,023954.000,A,2447.6807,N,12102.1821,E,38.59,115.42,100819,,,A*54
$GPGGA,023954.000,2447.6807,N,12102.1821,E,1,12,0.7,57.9,M,16.3,M,,0000*68
$GPSDC
$GPGSA,A,3,28,03,22,01,50,194,193,30,11,07,19,08,1.2,0.7,1.0*39
$GPGSV,4,1,16,01,23,040,37,03,50,071,37,07,04,180,29,08,06,099,42*76
$GPGSV,4,2,16,09,04,157,28,11,20,059,40,17,40,329,21,19,28,313,21*7F
$GPGSV,4,3,16,22,33,052,39,23,07,121,45,28,82,305,39,30,19,207,19*7B
$GPGSV,4,4,16,50,51,133,40,193,47,133,42,194,36,174,44,195,66,053,42*43
$GSENSORD,0.120,0.500,-0.180
$GPRMC,023955.000,A,2447.6759,N,12102.1930,E,39.37,115.88,100819,,,A*5F
$GPGGA,023955.000,2447.6759,N,12102.1930,E,1,12,0.7,58.2,M,16.3,M,,0000*68
$GPSDC
$GPGSA,A,3,28,03,22,01,42,195,50,194,193,30,17,06,1.2,0.7,0.9*0D
$GPGSV,4,1,16,01,23,040,31,03,50,071,34,06,35,258,41,07,04,180,20*78
$GPGSV,4,2,16,08,06,099,43,09,04,157,42,17,40,329,29,22,33,052,30*7C
$GPGSV,4,3,16,23,07,121,46,28,82,305,44,30,19,207,33,42,51,133,33*74
$GPGSV,4,4,16,50,51,133,35,193,47,133,44,194,36,174,46,195,66,053,42*45
$GSENSORD,0.180,0.370,-0.060
$GPRMC,023956.000,A,2447.6711,N,12102.2039,E,40.19,116.02,100819,,,A*50
$GPGGA,023956.000,2447.6711,N,12102.2039,E,1,12,0.7,58.2,M,16.3,M,,0000*64
$GPSDC
$GPGSA,A,3,28,03,22,42,50,194,193,30,11,17,06,07,1.2,0.7,1.0*3E
$GPGSV,4,1,16,03,50,071,30,06,35,258,38,07,04,180,38,08,06,099,45*72
$GPGSV,4,2,16,09,04,157,36,11,20,059,44,17,40,329,29,22,33,052,27*7E
$GPGSV,4,3,16,23,07,121,47,28,82,305,25,30,19,207,26,41,39,242,27*7B
$GPGSV,4,4,16,42,51,133,27,50,51,133,28,193,47,133,29,194,36,174,26*7F
$GSENSORD,0.250,0.500,-0.180
$GPRMC,023957.000,A,2447.6662,N,12102.2150,E,40.87,116.30,100819,,,A*5C
$GPGGA,023957.000,2447.6662,N,12102.2150,E,1,12,0.7,58.2,M,16.3,M,,0000*6E
$GPSDC
$GPGSA,A,3,28,03,22,01,42,195,50,194,193,30,11,17,1.2,0.7,0.9*0B
$GPGSV,4,1,16,01,23,040,38,03,50,071,37,06,35,258,25,08,06,099,44*76
$GPGSV,4,2,16,09,04,157,32,11,20,059,44,17,40,329,28,22,33,052,39*74
$GPGSV,4,3,16,23,07,121,43,28,82,305,44,30,19,207,34,42,51,133,38*7D
$GPGSV,4,4,16,50,51,133,40,193,47,133,43,194,36,174,45,195,66,053,42*43
$GSENSORD,0.120,0.430,-0.180
$GPRMC,023958.000,A,2447.6611,N,12102.2264,E,41.91,115.82,100819,,,A*5F
$GPGGA,023958.000,2447.6611,N,12102.2264,E,1,12,0.7,58.5,M,16.3,M,,0000*66
$GPSDC
$GPGSA,A,3,28,03,22,01,42,195,50,194,193,30,11,17,1.2,0.7,0.9*0B
$GPGSV,4,1,16,01,23,040,38,03,50,071,36,06,35,258,41,08,05,099,40*72
$GPGSV,4,2,16,09,04,157,33,11,20,059,43,17,40,329,28,22,33,052,39*72
$GPGSV,4,3,16,23,07,121,44,28,82,305,44,30,19,207,36,42,51,133,39*79
$GPGSV,4,4,16,50,51,133,41,193,47,133,43,194,36,174,46,195,66,053,41*42
$GSENSORD,0.310,0.430,-0.180
$GPRMC,023959.000,A,2447.6561,N,12102.2382,E,42.64,115.77,100819,,,A*50
$GPGGA,023959.000,2447.6561,N,12102.2382,E,1,12,0.6,58.8,M,16.3,M,,0000*66
$GPSDC
$GPGSA,A,3,28,03,22,01,42,195,50,194,193,30,11,17,1.2,0.6,1.0*02
$GPGSV,4,1,16,01,23,040,37,03,50,071,36,06,35,258,41,08,05,099,43*7E
$GPGSV,4,2,16,11,20,059,44,17,40,329,29,19,28,313,34,22,33,052,39*7E
$GPGSV,4,3,16,23,07,121,45,28,82,305,44,30,19,207,31,42,51,133,39*7F
$GPGSV,4,4,16,50,51,133,40,193,47,133,43,194,36,174,45,195,66,053,40*41
$GSENSORD,0.180,0.430,-0.120
$GPRMC,024000.000,A,2447.6510,N,12102.2499,E,42.32,115.59,100819,,,A*56
$GPGGA,024000.000,2447.6510,N,12102.2499,E,1,12,0.6,58.9,M,16.4,M,,0000*69
$GPSDC
$GPGSA,A,3,28,03,22,01,42,195,50,194,193,30,11,17,1.2,0.6,1.0*02
$GPGSV,4,1,16,01,23,040,38,03,50,071,36,06,35,258,41,08,05,099,44*76
$GPGSV,4,2,16,11,20,059,43,17,40,329,29,19,28,313,35,22,33,052,39*78
$GPGSV,4,3,16,23,07,121,45,28,82,305,44,30,19,207,31,42,51,133,39*7F
$GPGSV,4,4,16,50,51,133,40,193,47,133,42,194,36,174,46,195,66,053,41*42
$GSENSORD,0.180,0.500,-0.180
$GPRMC,024001.000,A,2447.6458,N,12102.2615,E,42.36,115.87,100819,,,A*5B
$GPGGA,024001.000,2447.6458,N,12102.2615,E,1,12,0.6,58.9,M,16.4,M,,0000*63
$GPSDC
$GPGSA,A,3,28,03,22,01,42,195,50,194,193,30,11,17,1.2,0.6,1.0*02
$GPGSV,4,1,16,01,23,040,37,03,50,071,36,06,35,258,40,08,05,099,43*7F
$GPGSV,4,2,16,11,20,059,43,17,40,329,28,19,28,313,34,22,33,052,38*79
$GPGSV,4,3,16,23,07,121,48,28,82,305,43,30,19,207,34,42,51,133,38*71
$GPGSV,4,4,16,50,51,133,39,193,47,133,42,194,36,174,41,195,66,053,42*48
$GSENSORD,0.180,0.430,0.120
$GPRMC,024002.000,A,2447.6406,N,12102.2733,E,43.06,115.86,100819,,,A*55
$GPGGA,024002.000,2447.6406,N,12102.2733,E,1,12,0.6,59.0,M,16.4,M,,0000*66
$GPSDC
$GPGSA,A,3,28,03,22,01,42,195,50,194,193,30,11,17,1.2,0.6,1.0*02
$GPGSV,4,1,16,01,23,040,37,03,50,071,35,06,35,258,39,08,05,099,42*73
$GPGSV,4,2,16,11,20,059,42,17,40,329,27,19,28,313,34,22,33,052,39*76
$GPGSV,4,3,16,23,07,121,44,28,82,305,43,30,19,207,30,42,51,133,38*79
$GPGSV,4,4,16,50,51,133,39,193,47,133,42,194,36,174,45,195,66,053,41*4F
$GSENSORD,0.120,0.430,0.120
$GPRMC,024003.000,A,2447.6353,N,12102.2853,E,43.92,115.61,100819,,,A*5E
$GPGGA,024003.000,2447.6353,N,12102.2853,E,1,12,0.6,59.5,M,16.4,M,,0000*6C
$GPSDC
$GPGSA,A,3,28,03,22,01,42,195,50,194,193,30,11,17,1.2,0.6,1.0*02
$GPGSV,4,1,16,01,23,040,37,03,50,071,35,06,35,258,40,07,04,179,47*79
$GPGSV,4,2,16,11,20,059,42,17,40,329,27,19,28,313,35,22,33,052,39*77
$GPGSV,4,3,16,23,07,121,42,28,82,305,43,30,19,207,33,42,51,133,38*7C
$GPGSV,4,4,16,50,51,133,39,193,47,133,42,194,36,174,45,195,66,053,41*4F
$GSENSORD,0.120,0.500,-0.120
$GPRMC,024004.000,A,2447.6299,N,12102.2976,E,44.78,115.93,100819,,,A*56
$GPGGA,024004.000,2447.6299,N,12102.2976,E,1,12,0.7,59.8,M,16.4,M,,0000*66
$GPSDC
$GPGSA,A,3,28,03,22,01,42,195,50,194,193,11,17,06,1.2,0.7,0.9*0E
$GPGSV,4,1,16,01,23,040,38,03,50,071,35,06,35,258,40,08,05,099,43*73
$GPGSV,4,2,16,09,04,157,43,11,20,059,43,17,40,329,27,19,28,313,35*72
$GPGSV,4,3,16,22,33,052,39,23,07,121,44,28,82,305,43,42,51,133,38*79
$GPGSV,4,4,16,50,51,133,39,193,47,133,42,194,36,174,45,195,66,053,41*4F
$GSENSORD,0.120,0.430,-0.120
$GPRMC,024005.000,A,2447.6243,N,12102.3101,E,45.64,115.57,100819,,,A*5D
$GPGGA,024005.000,2447.6243,N,12102.3101,E,1,12,0.6,60.0,M,16.4,M,,0000*6A
$GPSDC
$GPGSA,A,3,28,03,22,01,42,195,50,194,193,30,11,17,1.2,0.6,1.0*02
$GPGSV,4,1,16,01,23,040,29,03,50,071,35,06,35,258,40,08,05,099,42*72
$GPGSV,4,2,16,11,20,059,38,17,40,329,28,19,28,313,35,22,33,052,35*79
$GPGSV,4,3,16,23,07,121,45,28,82,305,43,30,19,207,35,42,51,133,38*7D
$GPGSV,4,4,16,50,51,133,39,193,47,133,41,194,36,174,45,195,66,053,39*43
$GSENSORD,0.180,0.370,-0.060
$GPRMC,024006.000,A,2447.6188,N,12102.3228,E,46.33,115.45,100819,,,A*50
$GPGGA,024006.000,2447.6188,N,12102.3228,E,1,12,0.6,60.2,M,16.4,M,,0000*67
$GPGSA,A,3,28,03,22,01,42,195,50,194,193,30,11,17,1.2,0.6,1.0*02
$GPGSV,4,1,16,01,23,040,37,03,50,071,36,06,35,258,40,08,05,099,40*7C
$GPGSV,4,2,16,11,20,059,43,17,40,329,31,19,28,313,35,22,33,052,38*70
$GPGSV,4,3,16,23,07,121,48,28,82,305,43,30,19,207,34,42,51,133,38*71
$GPGSV,4,4,16,50,51,133,39,193,47,133,42,194,36,174,45,195,66,053,41*4F
$GSENSORD,0.060,0.430,-0.180
$GPRMC,024007.000,A,2447.6131,N,12102.3356,E,47.19,115.82,100819,,,A*59
$GPGGA,024007.000,2447.6131,N,12102.3356,E,1,12,0.6,60.3,M,16.4,M,,0000*6D
$GPGSA,A,3,28,03,22,01,42,195,50,194,193,30,11,17,1.2,0.6,1.0*02
$GPGSV,4,1,16,01,23,040,38,03,50,071,35,06,35,258,40,08,05,099,42*72
$GPGSV,4,2,16,11,20,059,43,17,40,329,30,19,28,313,35,22,33,052,38*71
$GPGSV,4,3,16,23,07,121,48,28,82,305,43,30,19,207,36,42,51,133,37*7C
$GPGSV,4,4,16,50,51,133,39,193,47,133,42,194,36,174,45,195,66,053,41*4F
$GSENSORD,0.310,0.430,0.120
$GPRMC,024008.000,A,2447.6073,N,12102.3487,E,47.86,115.74,100819,,,A*55
$GPGGA,024008.000,2447.6073,N,12102.3487,E,1,12,0.6,60.5,M,16.4,M,,0000*68
$GPGSA,A,3,28,03,22,01,42,195,50,194,193,30,11,17,1.2,0.6,1.0*02
$GPGSV,4,1,16,01,23,040,38,03,50,071,35,06,35,258,40,08,05,099,40*70
$GPGSV,4,2,16,11,20,059,43,17,40,329,28,19,28,313,34,22,33,052,38*79
$GPGSV,4,3,16,23,07,121,48,28,82,305,43,30,19,207,34,42,51,133,37*7E
$GPGSV,4,4,16,50,51,133,39,193,47,133,42,194,36,174,44,195,66,053,41*4E
$GSENSORD,0.000,0.500,-0.120
$GPRMC,024009.000,A,2447.6015,N,12102.3620,E,48.50,115.94,100819,,,A*51
$GPGGA,024009.000,2447.6015,N,12102.3620,E,1,12,0.6,60.6,M,16.4,M,,0000*65
$GPGSA,A,3,28,03,22,01,42,195,50,194,193,30,11,17,1.2,0.6,1.0*02
$GPGSV,4,1,16,01,23,040,37,03,50,071,35,06,35,258,40,07,04,179,44*7A
$GPGSV,4,2,16,11,20,059,43,17,40,329,27,19,28,313,34,22,33,052,38*76
$GPGSV,4,3,16,23,07,121,48,28,82,305,43,30,19,207,38,42,51,133,37*72
$GPGSV,4,4,16,50,51,133,38,193,47,133,42,194,36,174,44,195,66,053,41*4F
$GSENSORD,0.120,0.370,-0.180
$GPRMC,024010.000,A,2447.5957,N,12102.3751,E,47.82,115.67,100819,,,A*5E
$GPGGA,024010.000,2447.5957,N,12102.3751,E,1,12,0.6,60.8,M,16.4,M,,0000*68
$GPGSA,A,3,28,03,22,01,42,195,50,194,193,30,11,17,1.2,0.6,1.0*02
$GPGSV,4,1,16,01,23,040,37,03,50,071,35,06,35,258,40,08,05,099,40*7F
$GPGSV,4,2,16,11,20,059,42,17,40,329,27,19,28,313,34,22,33,052,38*77
$GPGSV,4,3,16,23,07,121,47,28,82,305,43,30,19,207,33,42,51,133,37*76
$GPGSV,4,4,16,50,51,133,38,193,47,133,42,194,36,174,45,195,66,053,41*4E
$GSENSORD,0.060,0.430,-0.120
$GPRMC,024011.000,A,2447.5899,N,12102.3880,E,46.85,115.93,100819,,,A*52
$GPGGA,024011.000,2447.5899,N,12102.3880,E,1,12,0.6,60.9,M,16.4,M,,0000*68
$GPGSA,A,3,28,03,22,01,42,195,50,194,193,30,11,17,1.2,0.6,1.0*02
$GPGSV,4,1,16,01,23,040,38,03,50,071,35,06,35,258,40,07,04,179,44*75
$GPGSV,4,2,16,11,20,059,43,17,40,329,27,19,28,313,34,22,33,052,38*76
$GPGSV,4,3,16,23,07,121,48,28,82,305,43,30,19,207,33,42,51,133,37*79
$GPGSV,4,4,16,50,51,133,38,193,47,133,42,194,36,174,44,195,66,053,41*4F
$GSENSORD,0.000,0.310,0.000
$GPRMC,024012.000,A,2447.5842,N,12102.4007,E,45.95,116.04,100819,,,A*58
$GPGGA,024012.000,2447.5842,N,12102.4007,E,1,12,0.6,61.0,M,16.4,M,,0000*65
$GPGSA,A,3,28,03,22,01,42,195,50,194,193,30,11,17,1.2,0.6,1.0*02
$GPGSV,4,1,16,01,23,040,37,03,50,071,35,06,35,258,40,08,05,099,41*7E
$GPGSV,4,2,16,11,20,059,42,17,40,329,26,19,28,313,34,22,33,052,39*77
$GPGSV,4,3,16,23,07,121,47,28,82,305,43,30,19,207,30,42,51,133,37*75
$GPGSV,4,4,16,50,51,133,38,193,47,133,42,194,36,174,44,195,66,053,40*4E
$GSENSORD,0.000,0.500,-0.120
$GPRMC,024013.000,A,2447.5787,N,12102.4131,E,45.13,116.24,100819,,,A*57
$GPGGA,024013.000,2447.5787,N,12102.4131,E,1,12,0.6,61.1,M,16.4,M,,0000*67
$GPGSA,A,3,28,03,22,01,42,195,50,194,193,30,11,17,1.2,0.6,1.0*02
$GPGSV,4,1,16,01,23,040,38,03,50,071,35,06,35,258,40,08,05,099,42*72
$GPGSV,4,2,16,11,20,059,42,17,40,329,27,19,28,313,34,22,33,052,38*77
$GPGSV,4,3,16,23,08,121,45,28,82,305,43,30,19,207,36,42,51,133,37*7E
$GPGSV,4,4,16,50,51,133,38,193,47,133,41,194,36,174,45,195,66,053,41*4D
$GSENSORD,0.060,0.430,-0.180
$GPRMC,024014.000,A,2447.5732,N,12102.4253,E,44.31,115.71,100819,,,A*5B
$GPGGA,024014.000,2447.5732,N,12102.4253,E,1,12,0.6,61.2,M,16.4,M,,0000*6A
$GPGSA,A,3,28,03,22,01,42,195,50,194,193,30,11,17,1.2,0.6,1.0*02
$GPGSV,4,1,16,01,23,040,37,03,50,071,35,06,35,258,39,08,05,099,41*70
$GPGSV,4,2,16,11,20,059,42,17,40,329,26,19,28,313,33,22,33,052,38*71
$GPGSV,4,3,16,23,08,121,44,28,82,305,42,30,19,207,35,42,51,133,36*7C
$GPGSV,4,4,16,50,51,133,38,193,47,133,41,194,36,174,44,195,66,053,41*4C
$GSENSORD,0.060,0.430,-0.120
$GPRMC,024015.000,A,2447.5679,N,12102.4374,E,43.57,115.75,100819,,,A*53
$GPGGA,024015.000,2447.5679,N,12102.4374,E,1,12,0.6,61.3,M,16.4,M,,0000*60
$GPGSA,A,3,28,03,22,01,42,195,50,194,193,30,11,17,1.2,0.6,1.0*02
$GPGSV,4,1,16,01,23,040,37,03,50,071,35,06,35,258,39,08,05,099,42*73
$GPGSV,4,2,16,11,20,059,42,17,40,329,27,19,28,313,33,22,33,052,38*70
$GPGSV,4,3,16,23,08,121,44,28,82,305,42,30,19,207,36,42,51,133,36*7F
$GPGSV,4,4,16,50,51,133,38,193,47,133,41,194,36,174,44,195,66,053,41*4C
$GSENSORD,0.000,0.430,-0.120
$GPRMC,024016.000,A,2447.5627,N,12102.4492,E,42.85,115.69,100819,,,A*57
$GPGGA,024016.000,2447.5627,N,12102.4492,E,1,12,0.6,61.5,M,16.4,M,,0000*61
$GPGSA,A,3,28,03,22,01,42,195,50,194,193,30,11,17,1.2,0.6,1.0*02
$GPGSV,4,1,16,01,23,040,37,03,50,071,35,06,35,258,39,08,05,099,42*73
$GPGSV,4,2,16,11,20,059,42,17,40,329,27,19,28,313,34,22,33,052,37*78
$GPGSV,4,3,16,23,08,121,47,28,82,305,42,30,19,207,36,42,51,133,37*7D
$GPGSV,4,4,16,50,51,133,39,193,47,133,40,194,36,174,44,195,66,053,41*4C
$GSENSORD,0.120,0.430,-0.180
$GPRMC,024017.000,A,2447.5576,N,12102.4609,E,42.26,115.75,100819,,,A*55
$GPGGA,024017.000,2447.5576,N,12102.4609,E,1,12,0.6,61.6,M,16.4,M,,0000*64
$GPGSA,A,3,28,03,22,01,42,195,50,194,193,30,11,17,1.2,0.6,1.0*02
$GPGSV,4,1,16,01,23,040,37,03,50,071,35,06,35,258,39,08,05,099,41*70
$GPGSV,4,2,16,11,20,059,42,17,40,329,26,19,28,313,33,22,33,052,38*71
$GPGSV,4,3,16,23,08,121,47,28,82,305,42,30,19,207,36,42,51,133,36*7C
$GPGSV,4,4,16,50,51,133,39,193,47,133,41,194,36,174,44,195,66,053,41*4D
$GSENSORD,0.120,0.000,-0.180
$GPRMC,024018.000,A,2447.5524,N,12102.4724,E,41.99,115.90,100819,,,A*5F
$GPGGA,024018.000,2447.5524,N,12102.4724,E,1,12,0.6,61.7,M,16.4,M,,0000*63
$GPGSA,A,3,28,03,22,01,42,195,50,194,193,30,11,17,1.2,0.6,1.0*02
$GPGSV,4,1,16,01,23,040,38,03,50,071,36,06,35,258,39,08,05,099,41*7C
$GPGSV,4,2,16,11,20,059,42,17,40,329,25,19,28,313,33,22,33,052,37*7D
$GPGSV,4,3,16,23,08,121,46,28,82,303,42,30,19,207,32,42,51,133,37*7E
$GPGSV,4,4,16,50,51,133,39,193,47,133,41,194,36,174,44,195,66,053,41*4D
$GSENSORD,0.000,0.430,-0.120
$GPRMC,024019.000,A,2447.5473,N,12102.4839,E,41.73,115.86,100819,,,A*5D
$GPGGA,024019.000,2447.5473,N,12102.4839,E,1,12,0.6,61.8,M,16.4,M,,0000*6D
$GPGSA,A,3,28,03,22,01,42,195,50,194,193,30,11,17,1.2,0.6,1.0*02
$GPGSV,4,1,16,01,23,040,37,03,50,071,35,06,35,258,39,08,05,099,42*73
$GPGSV,4,2,16,11,20,059,42,17,40,329,25,19,28,313,33,22,33,052,38*72
$GPGSV,4,3,16,23,08,121,47,28,82,303,42,30,19,207,32,42,51,133,37*7F
$GPGSV,4,4,16,50,51,133,39,193,47,133,41,194,36,174,44,195,66,053,41*4D
$GSENSORD,0.120,0.430,-0.120
$GPRMC,024020.000,A,2447.5423,N,12102.4953,E,41.44,115.60,100819,,,A*53
$GPGGA,024020.000,2447.5423,N,12102.4953,E,1,12,0.6,62.0,M,16.4,M,,0000*64
$GPGSA,A,3,28,03,22,01,42,195,50,194,193,30,11,17,1.2,0.6,1.0*02
$GPGSV,4,1,16,01,23,040,37,03,50,071,34,06,35,258,39,08,05,099,41*71
$GPGSV,4,2,16,11,20,059,41,17,40,329,26,19,28,313,33,22,33,052,38*72
$GPGSV,4,3,16,23,08,121,46,28,82,303,42,30,19,207,34,42,51,133,37*78
$GPGSV,4,4,16,50,51,133,38,193,47,133,40,194,36,174,43,195,66,053,40*4B
$GSENSORD,0.000,0.370,-0.120
$GPRMC,024021.000,A,2447.5373,N,12102.5067,E,41.42,115.86,100819,,,A*51
$GPGGA,024021.000,2447.5373,N,12102.5067,E,1,12,0.6,62.1,M,16.4,M,,0000*69
$GPGSA,A,3,28,03,22,01,42,195,50,194,193,30,11,17,1.2,0.6,1.0*02
$GPGSV,4,1,16,01,23,040,37,03,50,071,35,06,35,258,39,08,05,099,39*7F
$GPGSV,4,2,16,11,20,059,43,17,40,329,26,19,28,313,34,22,33,052,37*78
$GPGSV,4,3,16,23,08,121,47,28,82,303,42,30,19,207,37,42,51,133,37*7A
$GPGSV,4,4,16,50,51,133,38,193,47,133,41,194,36,174,43,195,66,053,40*4A
$GSENSORD,0.060,0.430,-0.060
$GPRMC,024022.000,A,2447.5322,N,12102.5181,E,41.52,116.02,100819,,,A*51
$GPGGA,024022.000,2447.5322,N,12102.5181,E,1,12,0.6,62.3,M,16.4,M,,0000*65
$GPGSA,A,3,28,03,22,01,42,195,50,194,193,30,11,17,1.2,0.6,1.0*02
$GPGSV,4,1,16,01,23,040,37,03,50,071,35,06,35,258,40,08,05,099,41*7E
$GPGSV,4,2,16,11,20,059,42,17,40,329,26,19,28,313,34,22,33,052,38*76
$GPGSV,4,3,16,23,08,121,48,28,82,303,42,30,19,207,36,42,51,133,37*74
$GPGSV,4,4,16,50,51,133,38,193,47,133,41,194,36,174,44,195,66,053,40*4D
$GSENSORD,0.180,0.310,-0.060
$GPRMC,024023.000,A,2447.5272,N,12102.5296,E,41.71,115.70,100819,,,A*56
$GPGGA,024023.000,2447.5272,N,12102.5296,E,1,12,0.6,62.4,M,16.4,M,,0000*62
$GPGSA,A,3,28,03,22,01,42,195,50,194,193,30,11,17,1.2,0.6,1.0*02
$GPGSV,4,1,16,01,23,040,37,03,50,071,35,06,35,258,40,08,05,099,41*7E
$GPGSV,4,2,16,11,20,059,41,17,40,329,26,19,28,313,34,22,33,052,38*75
$GPGSV,4,3,16,23,08,121,47,28,82,303,42,30,19,207,36,42,51,133,37*7B
$GPGSV,4,4,16,50,51,133,38,193,47,133,41,194,36,174,44,195,66,053,40*4D
$GSENSORD,0.060,0.430,-0.120
$GPRMC,024024.000,A,2447.5221,N,12102.5410,E,41.82,116.04,100819,,,A*53
$GPGGA,024024.000,2447.5221,N,12102.5410,E,1,12,0.6,62.4,M,16.4,M,,0000*6B
$GPGSA,A,3,28,03,22,01,42,195,50,194,193,30,11,17,1.2,0.6,1.0*02
$GPGSV,4,1,16,01,23,040,37,03,50,071,35,06,35,258,40,08,05,099,43*7C
$GPGSV,4,2,16,11,20,059,42,17,40,329,27,19,28,313,34,22,33,052,38*77
$GPGSV,4,3,16,23,08,121,46,28,82,303,42,30,19,207,36,42,51,133,37*7A
$GPGSV,4,4,16,50,51,133,38,193,47,133,41,194,36,174,44,195,66,053,41*4C
$GSENSORD,0.060,0.500,-0.120
$GPRMC,024025.000,A,2447.5169,N,12102.5525,E,42.02,116.07,100819,,,A*52
$GPGGA,024025.000,2447.5169,N,12102.5525,E,1,12,0.6,62.6,M,16.4,M,,0000*60
$GPGSA,A,3,28,03,22,01,42,195,50,194,193,30,11,17,1.2,0.6,1.0*02
$GPGSV,4,1,16,01,23,040,37,03,50,071,35,06,35,258,40,08,05,099,39*71
$GPGSV,4,2,16,11,20,059,42,17,40,329,27,19,28,313,33,22,33,052,38*70
$GPGSV,4,3,16,23,08,121,44,28,82,303,42,30,19,207,34,42,51,133,37*7A
$GPGSV,4,4,16,50,51,133,38,193,47,133,41,194,36,174,44,195,66,053,41*4C
$GSENSORD,0.120,0.430,-0.120
$GPRMC,024026.000,A,2447.5118,N,12102.5641,E,42.28,115.68,100819,,,A*54
$GPGGA,024026.000,2447.5118,N,12102.5641,E,1,12,0.6,62.7,M,16.4,M,,0000*65
$GPGSA,A,3,28,03,22,01,42,195,50,194,193,30,11,17,1.2,0.6,1.0*02
$GPGSV,4,1,16,01,23,040,37,03,50,071,35,06,35,258,40,08,05,099,41*7E
$GPGSV,4,2,16,11,20,059,42,17,40,329,27,19,28,313,34,22,33,052,37*78
$GPGSV,4,3,16,23,08,121,44,28,82,303,42,30,19,207,36,42,51,133,36*79
$GPGSV,4,4,16,50,51,133,38,193,47,133,41,194,36,174,44,195,66,053,41*4C
$GSENSORD,0.180,0.500,-0.060
$GPRMC,024027.000,A,2447.5066,N,12102.5758,E,42.59,115.70,100819,,,A*5B
$GPGGA,024027.000,2447.5066,N,12102.5758,E,1,12,0.6,62.8,M,16.4,M,,0000*6A
$GPGSA,A,3,28,03,22,01,42,195,50,194,193,30,11,17,1.2,0.6,1.0*02
$GPGSV,4,1,16,01,23,040,37,03,50,071,35,06,35,258,40,08,05,099,42*7D
$GPGSV,4,2,16,11,20,059,42,17,40,329,28,19,28,313,33,22,33,052,38*7F
$GPGSV,4,3,16,23,08,121,45,28,82,303,42,30,19,207,33,42,51,133,37*7C
$GPGSV,4,4,16,50,51,133,39,193,47,133,41,194,36,174,44,195,66,053,41*4D
$GSENSORD,0.000,0.430,-0.120
$GPRMC,024028.000,A,2447.5015,N,12102.5876,E,42.90,115.66,100819,,,A*51
$GPGGA,024028.000,2447.5015,N,12102.5876,E,1,12,0.6,63.0,M,16.4,M,,0000*6B
$GPGSA,A,3,28,03,22,01,42,195,50,194,193,30,11,17,1.2,0.6,1.0*02
$GPGSV,4,1,16,01,23,040,37,03,50,071,35,06,35,258,40,08,05,099,42*7D
$GPGSV,4,2,16,11,20,059,42,17,40,329,26,19,28,313,34,22,33,052,37*79
$GPGSV,4,3,16,23,08,121,48,28,82,303,42,30,19,207,36,42,51,133,38*7B
$GPGSV,4,4,16,50,51,133,39,193,47,133,40,194,36,174,44,195,66,053,41*4C
$GSENSORD,0.120,0.500,0.000
$GPRMC,024029.000,A,2447.4962,N,12102.5995,E,43.23,115.85,100819,,,A*50
$GPGGA,024029.000,2447.4962,N,12102.5995,E,1,12,0.6,63.1,M,16.4,M,,0000*6F
$GPGSA,A,3,28,03,22,01,42,195,50,194,193,30,11,17,1.2,0.6,1.0*02
$GPGSV,4,1,16,01,23,040,37,03,50,071,35,06,35,258,39,08,05,099,41*70
$GPGSV,4,2,16,11,20,059,42,17,40,329,27,19,28,313,33,22,33,052,38*70
$GPGSV,4,3,16,23,08,121,47,28,82,303,42,30,19,207,37,42,51,133,37*7A
$GPGSV,4,4,16,50,51,133,39,193,47,133,41,194,36,174,44,195,66,053,41*4D
$GSENSORD,0.000,0.370,0.120
$GPRMC,024030.000,A,2447.4910,N,12102.6114,E,43.49,115.80,100819,,,A*56
$GPGGA,024030.000,2447.4910,N,12102.6114,E,1,12,0.6,63.3,M,16.4,M,,0000*62
$GPGSA,A,3,28,03,22,01,42,195,50,194,193,30,11,17,1.2,0.6,1.0*02
$GPGSV,4,1,16,01,23,040,36,03,50,071,34,06,35,258,40,07,04,179,42*7C
$GPGSV,4,2,16,11,20,059,42,17,40,329,28,19,28,313,34,22,33,052,38*78
$GPGSV,4,3,16,23,08,121,46,28,82,303,42,30,19,207,34,42,51,133,37*78
$GPGSV,4,4,16,50,51,133,38,193,47,133,41,194,36,174,44,195,66,053,41*4C
$GSENSORD,0.060,0.430,-0.120
$GPRMC,024031.000,A,2447.4856,N,12102.6234,E,43.75,115.92,100819,,,A*59
$GPGGA,024031.000,2447.4856,N,12102.6234,E,1,12,0.6,63.5,M,16.4,M,,0000*67
$GPGSA,A,3,28,03,22,01,42,195,50,194,193,30,11,17,1.2,0.6,1.0*02
$GPGSV,4,1,16,01,23,040,37,03,50,071,35,06,35,258,40,08,05,099,41*7E
$GPGSV,4,2,16,11,20,059,42,17,40,329,28,19,28,313,34,22,33,052,38*78
$GPGSV,4,3,16,23,08,121,47,28,82,303,42,30,19,207,37,42,51,133,38*75
$GPGSV,4,4,16,50,51,133,38,193,47,133,41,194,36,174,45,195,66,053,41*4D
$GSENSORD,0.180,0.430,-0.060
$GPRMC,024032.000,A,2447.4803,N,12102.6355,E,44.09,115.93,100819,,,A*51
$GPGGA,024032.000,2447.4803,N,12102.6355,E,1,12,0.6,63.7,M,16.4,M,,0000*60
$GPGSA,A,3,28,03,22,01,42,195,50,194,193,30,11,17,1.2,0.6,1.0*02
$GPGSV,4,1,16,01,23,040,37,03,50,071,39,06,35,258,39,08,05,099,41*7C
$GPGSV,4,2,16,11,20,059,42,17,40,329,28,19,28,313,34,22,33,052,36*76
$GPGSV,4,3,16,23,08,121,47,28,82,303,42,30,19,207,34,42,51,133,37*79
$GPGSV,4,4,16,50,51,133,39,193,47,133,41,194,36,174,44,195,66,053,41*4D
$GSENSORD,0.000,0.370,-0.120
$GPRMC,024033.000,A,2447.4749,N,12102.6476,E,44.19,115.81,100819,,,A*55
$GPGGA,024033.000,2447.4749,N,12102.6476,E,1,12,0.6,63.8,M,16.4,M,,0000*69
$GPGSA,A,3,28,03,22,01,42,195,50,194,193,30,11,17,1.2,0.6,1.0*02
$GPGSV,4,1,16,01,23,040,36,03,50,071,32,06,35,258,40,08,05,099,41*78
$GPGSV,4,2,16,11,20,059,41,17,40,329,27,19,28,313,34,22,33,052,36*7A
$GPGSV,4,3,16,23,08,121,47,28,82,303,42,30,19,207,37,42,51,133,38*75
$GPGSV,4,4,16,50,51,133,38,193,47,133,40,194,36,174,42,195,66,053,41*4B
$GSENSORD,0.120,0.430,-0.120
$GPRMC,024034.000,A,2447.4696,N,12102.6597,E,43.91,115.87,100819,,,A*5E
$GPGGA,024034.000,2447.4696,N,12102.6597,E,1,12,0.6,63.9,M,16.4,M,,0000*62
$GPGSA,A,3,28,03,22,01,42,195,50,194,193,30,11,17,1.2,0.6,1.0*02
$GPGSV,4,1,16,01,23,040,38,03,50,071,36,06,35,258,39,08,05,099,41*7C
$GPGSV,4,2,16,11,20,059,43,17,40,329,26,19,28,313,34,22,33,052,39*76
$GPGSV,4,3,16,23,08,121,45,28,82,303,42,30,19,207,35,42,51,133,38*75
$GPGSV,4,4,16,50,51,133,38,193,47,133,41,194,36,174,45,195,66,053,41*4D
$GSENSORD,0.060,0.430,-0.120
$GPRMC,024035.000,A,2447.4642,N,12102.6716,E,43.23,116.04,100819,,,A*5C
$GPGGA,024035.000,2447.4642,N,12102.6716,E,1,12,0.6,64.1,M,16.4,M,,0000*6E
$GPGSA,A,3,28,03,22,01,42,195,50,194,193,30,11,17,1.2,0.6,1.0*02
$GPGSV,4,1,16,01,23,040,38,03,50,071,35,06,35,258,39,08,05,099,42*7C
$GPGSV,4,2,16,11,20,059,42,17,40,329,25,19,28,313,34,22,33,052,38*75
$GPGSV,4,3,16,23,08,121,42,28,82,303,42,30,19,207,32,42,51,133,37*7A
$GPGSV,4,4,16,50,51,133,38,193,47,133,41,194,36,174,44,195,66,053,41*4C
$GSENSORD,0.120,0.430,-0.120
$GPRMC,024036.000,A,2447.4591,N,12102.6833,E,42.37,115.85,100819,,,A*54
$GPGGA,024036.000,2447.4591,N,12102.6833,E,1,12,0.6,64.2,M,16.4,M,,0000*6B
$GPGSA,A,3,28,03,22,01,42,195,50,194,193,30,11,17,1.2,0.6,1.0*02
$GPGSV,4,1,16,01,23,040,38,03,50,071,35,06,35,258,39,08,05,099,39*70
$GPGSV,4,2,16,11,20,059,42,17,40,329,25,19,28,313,33,22,33,052,37*7D
$GPGSV,4,3,16,23,08,121,39,28,82,303,42,30,19,207,37,42,51,133,37*73
$GPGSV,4,4,16,50,51,133,38,193,47,133,42,194,36,174,44,195,66,053,41*4F
$GSENSORD,0.000,0.430,-0.120
$GPRMC,024037.000,A,2447.4540,N,12102.6949,E,41.87,115.54,100819,,,A*51
$GPGGA,024037.000,2447.4540,N,12102.6949,E,1,12,0.6,64.4,M,16.4,M,,0000*6C
$GPGSA,A,3,28,03,22,01,42,195,50,194,193,30,11,17,1.2,0.6,1.0*02
$GPGSV,4,1,16,01,23,040,36,03,50,071,35,06,35,258,40,09,04,157,41*7C
$GPGSV,4,2,16,11,20,059,42,17,40,329,26,19,28,313,34,22,33,052,37*79
$GPGSV,4,3,16,23,08,121,44,28,82,303,42,30,19,207,35,42,51,133,37*7B
$GPGSV,4,4,16,50,51,133,39,193,47,133,41,194,36,174,44,195,66,053,41*4D
$GSENSORD,0.180,0.430,-0.060
$GPRMC,024038.000,A,2447.4489,N,12102.7064,E,42.00,115.60,100819,,,A*56
$GPGGA,024038.000,2447.4489,N,12102.7064,E,1,12,0.6,64.5,M,16.4,M,,0000*61
$GPGSA,A,3,28,03,22,01,42,195,50,194,193,30,11,17,1.2,0.6,1.0*02
$GPGSV,4,1,16,01,23,040,38,03,50,071,35,06,35,258,39,08,05,099,43*7D
$GPGSV,4,2,16,11,20,059,42,17,40,329,27,19,28,313,34,22,33,052,38*77
$GPGSV,4,3,16,23,08,121,47,28,82,303,42,30,19,207,38,42,51,133,37*75
$GPGSV,4,4,16,50,51,133,39,193,47,133,41,194,36,174,44,195,66,053,41*4D
$GSENSORD,0.250,0.000,-0.120
$GPRMC,024039.000,A,2447.4438,N,12102.7181,E,42.67,116.11,100819,,,A*53
$GPGGA,024039.000,2447.4438,N,12102.7181,E,1,12,0.6,64.7,M,16.4,M,,0000*62
$GPGSA,A,3,28,03,22,01,42,195,50,194,193,30,11,17,1.2,0.6,1.0*02
$GPGSV,4,1,16,01,23,040,37,03,50,071,35,06,35,258,40,08,05,099,41*7E
$GPGSV,4,2,16,11,20,059,42,17,40,329,27,19,28,313,34,22,33,052,38*77
$GPGSV,4,3,16,23,08,121,46,28,82,303,42,30,19,207,31,42,51,133,37*7D
$GPGSV,4,4,16,50,51,133,39,193,47,133,41,194,36,174,44,195,66,053,41*4D
$GSENSORD,0.120,0.500,-0.060
$GPRMC,024040.000,A,2447.4385,N,12102.7299,E,43.27,116.04,100819,,,A*57
$GPGGA,024040.000,2447.4385,N,12102.7299,E,1,12,0.6,64.9,M,16.4,M,,0000*69
$GPGSA,A,3,28,03,22,01,42,195,50,194,193,30,11,17,1.2,0.6,1.0*02
$GPGSV,4,1,16,01,23,040,37,03,50,071,35,06,35,258,40,08,05,099,40*7F
$GPGSV,4,2,16,11,20,059,42,17,40,329,27,19,28,313,34,22,33,052,37*78
$GPGSV,4,3,16,23,08,121,44,28,82,303,42,30,19,207,31,42,51,133,37*7F
$GPGSV,4,4,16,50,51,133,39,193,47,133,41,194,36,174,44,195,66,053,41*4D
$GSENSORD,0.060,0.430,-0.060
$GPRMC,024041.000,A,2447.4332,N,12102.7418,E,43.51,115.93,100819,,,A*59
$GPGGA,024041.000,2447.4332,N,12102.7418,E,1,12,0.6,65.0,M,16.4,M,,0000*63
$GPGSA,A,3,28,03,22,01,42,195,50,194,193,30,11,17,1.2,0.6,1.0*02
$GPGSV,4,1,16,01,23,040,37,03,50,071,31,06,35,258,40,08,05,099,38*74
$GPGSV,4,2,16,11,20,059,41,17,40,329,27,19,28,313,34,22,33,052,38*74
$GPGSV,4,3,16,23,08,121,44,28,82,303,42,30,19,207,35,42,51,133,36*7A
$GPGSV,4,4,16,50,51,133,38,193,47,133,41,194,36,174,44,195,66,053,41*4C
$GSENSORD,0.060,0.430,-0.120
$GPRMC,024042.000,A,2447.4279,N,12102.7538,E,43.68,115.87,100819,,,A*58
$GPGGA,024042.000,2447.4279,N,12102.7538,E,1,12,0.6,65.2,M,16.4,M,,0000*6F
$GPGSA,A,3,28,03,22,01,42,195,50,194,193,30,11,17,1.2,0.6,1.0*02
$GPGSV,4,1,16,01,23,040,39,03,50,071,32,06,35,258,39,08,05,099,43*7B
$GPGSV,4,2,16,11,20,059,41,17,40,329,26,19,28,313,33,22,33,052,38*72
$GPGSV,4,3,16,23,08,121,43,28,82,303,42,30,19,207,35,42,51,133,38*73
$GPGSV,4,4,16,50,51,133,38,193,47,133,41,194,36,174,44,195,66,053,41*4C
$GSENSORD,0.120,0.430,0.000
$GPRMC,024043.000,A,2447.4226,N,12102.7658,E,43.85,115.76,100819,,,A*5B
$GPGGA,024043.000,2447.4226,N,12102.7658,E,1,12,0.6,65.3,M,16.4,M,,0000*60
$GPGSA,A,3,28,03,22,01,42,195,50,194,193,30,11,17,1.2,0.6,1.0*02
$GPGSV,4,1,16,01,23,040,37,03,50,071,33,06,35,258,39,08,05,099,44*73
$GPGSV,4,2,16,11,20,059,42,17,40,329,26,19,28,313,34,22,33,052,38*76
$GPGSV,4,3,16,23,08,121,44,28,82,303,42,30,19,207,36,42,51,133,38*77
$GPGSV,4,4,16,50,51,133,39,193,47,133,41,194,36,174,44,195,66,053,41*4D
$GSENSORD,0.120,0.500,-0.120
$GPRMC,024044.000,A,2447.4173,N,12102.7779,E,43.96,115.51,100819,,,A*5A
$GPGGA,024044.000,2447.4173,N,12102.7779,E,1,12,0.6,65.5,M,16.4,M,,0000*60
$GPGSA,A,3,28,03,22,01,42,195,50,194,193,30,11,17,1.2,0.6,1.0*02
$GPGSV,4,1,16,01,23,040,39,03,50,071,29,06,35,258,39,08,05,099,39*7C
$GPGSV,4,2,16,11,20,059,41,17,40,329,26,19,28,313,34,22,33,052,39*74
$GPGSV,4,3,16,23,08,121,46,28,82,303,42,30,19,207,36,42,51,133,37*7A
$GPGSV,4,4,16,50,51,133,38,193,47,133,41,194,36,174,44,195,66,053,41*4C
$GSENSORD,0.180,0.430,-0.180
$GPRMC,024045.000,A,2447.4120,N,12102.7900,E,44.21,115.72,100819,,,A*57
$GPGGA,024045.000,2447.4120,N,12102.7900,E,1,12,0.6,65.7,M,16.4,M,,0000*65
$GPGSA,A,3,28,03,22,01,42,195,50,194,193,30,11,17,1.2,0.6,1.0*02
$GPGSV,4,1,16,01,23,040,39,03,50,071,34,06,35,258,39,08,05,099,41*7F
$GPGSV,4,2,16,11,20,059,41,17,40,329,31,19,28,313,34,22,33,052,39*72
$GPGSV,4,3,16,23,08,121,46,28,82,303,42,30,19,207,33,42,51,133,37*7F
$GPGSV,4,4,16,50,51,133,38,193,47,133,41,194,36,174,45,195,66,053,41*4D
$GSENSORD,0.120,0.430,-0.120
$GPRMC,024046.000,A,2447.4066,N,12102.8022,E,44.14,115.77,100819,,,A*52
$GPGGA,024046.000,2447.4066,N,12102.8022,E,1,12,0.6,65.8,M,16.4,M,,0000*6C
$GPGSA,A,3,28,03,22,01,42,195,50,194,193,30,11,17,1.2,0.6,1.0*02
$GPGSV,4,1,16,01,23,040,36,03,50,071,35,06,35,258,38,08,05,099,42*73
$GPGSV,4,2,16,11,20,059,41,17,40,329,24,19,28,313,34,22,33,052,37*78
$GPGSV,4,3,16,23,08,121,48,28,82,303,42,30,19,207,36,42,51,133,38*7B
$GPGSV,4,4,16,50,51,133,38,193,47,133,41,194,36,174,44,195,66,053,40*4D
$GSENSORD,0.000,0.430,-0.120
$GPRMC,024047.000,A,2447.4013,N,12102.8142,E,43.45,115.91,100819,,,A*5D
$GPGGA,024047.000,2447.4013,N,12102.8142,E,1,12,0.6,66.0,M,16.4,M,,0000*63
$GPGSA,A,3,28,03,22,01,42,195,50,194,193,30,11,17,1.2,0.6,1.0*02
$GPGSV,4,1,16,01,23,040,36,03,50,071,35,06,35,258,39,08,05,099,42*72
$GPGSV,4,2,16,11,20,059,41,17,40,329,23,19,28,313,34,22,33,052,38*70
$GPGSV,4,3,16,23,08,121,46,28,82,303,42,30,19,207,32,42,51,133,37*7E
$GPGSV,4,4,16,50,51,133,38,193,47,133,41,194,36,174,44,195,66,053,40*4D
$GSENSORD,0.060,0.500,-0.120
$GPRMC,024048.000,A,2447.3961,N,12102.8260,E,42.66,115.72,100819,,,A*57
$GPGGA,024048.000,2447.3961,N,12102.8260,E,1,12,0.6,66.1,M,16.4,M,,0000*65
$GPGSA,A,3,28,03,22,01,42,195,50,194,193,30,11,17,1.2,0.6,1.0*02
$GPGSV,4,1,16,01,23,040,37,03,50,071,35,06,35,258,39,08,05,099,40*71
$GPGSV,4,2,16,11,20,059,41,17,40,329,24,19,28,313,34,22,33,052,38*77
$GPGSV,4,3,16,23,08,121,47,28,82,303,42,30,19,207,35,42,51,133,37*78
$GPGSV,4,4,16,50,51,133,39,193,47,133,41,194,36,174,44,195,66,053,41*4D
$GSENSORD,0.060,0.370,-0.060
$GPRMC,024049.000,A,2447.3910,N,12102.8375,E,41.88,115.71,100819,,,A*55
$GPGGA,024049.000,2447.3910,N,12102.8375,E,1,12,0.6,66.2,M,16.4,M,,0000*64
$GPGSA,A,3,28,03,22,01,42,195,50,194,193,30,11,17,1.2,0.6,1.0*02
$GPGSV,4,1,16,01,23,040,37,03,50,071,35,06,35,258,39,08,05,099,41*70
$GPGSV,4,2,16,11,20,059,42,17,40,329,25,19,28,313,35,22,33,052,38*74
$GPGSV,4,3,16,23,08,121,49,28,82,303,42,30,19,207,35,42,51,133,37*76
$GPGSV,4,4,16,50,51,133,39,193,47,133,41,194,36,174,44,195,66,053,41*4D
$GSENSORD,0.000,0.000,-0.120
$GPRMC,024050.000,A,2447.3860,N,12102.8489,E,41.21,116.01,100819,,,A*58
$GPGGA,024050.000,2447.3860,N,12102.8489,E,1,12,0.6,66.3,M,16.4,M,,0000*6F
$GPGSA,A,3,28,03,22,01,42,195,50,194,193,30,11,17,1.2,0.6,1.0*02
$GPGSV,4,1,16,01,23,040,37,03,50,071,35,06,35,258,39,09,04,157,43*71
$GPGSV,4,2,16,11,20,059,42,17,40,329,25,19,28,313,34,22,33,052,38*75
$GPGSV,4,3,16,23,08,121,48,28,82,303,42,30,19,207,35,42,51,133,37*77
$GPGSV,4,4,16,50,51,133,39,193,47,133,41,194,36,174,44,195,66,053,40*4C
$GSENSORD,0.000,0.430,-0.180
$GPRMC,024051.000,A,2447.3810,N,12102.8601,E,40.71,116.20,100819,,,A*5B
$GPGGA,024051.000,2447.3810,N,12102.8601,E,1,12,0.6,66.4,M,16.4,M,,0000*6C
$GPGSA,A,3,28,03,22,01,42,195,50,194,193,30,11,17,1.2,0.6,1.0*02
$GPGSV,4,1,16,01,23,040,37,03,50,071,31,06,35,258,39,08,05,099,44*71
$GPGSV,4,2,16,11,20,059,42,17,40,329,26,19,28,313,34,22,33,052,38*76
$GPGSV,4,3,16,23,08,121,47,28,82,303,42,30,19,207,37,42,51,133,37*7A
$GPGSV,4,4,16,50,51,133,39,193,47,133,41,194,36,174,44,195,66,053,41*4D
$GSENSORD,0.060,0.430,-0.120
$GPRMC,024052.000,A,2447.3759,N,12102.8713,E,41.07,116.15,100819,,,A*5E
$GPGGA,024052.000,2447.3759,N,12102.8713,E,1,12,0.6,66.7,M,16.4,M,,0000*6C
$GPGSA,A,3,28,03,22,01,42,195,50,194,193,30,11,17,1.2,0.6,1.0*02
$GPGSV,4,1,16,01,23,040,37,03,50,071,34,06,35,258,40,08,05,099,45*7B
$GPGSV,4,2,16,11,20,059,42,17,40,329,26,19,28,313,34,22,33,052,38*76
$GPGSV,4,3,16,23,08,121,44,28,82,303,42,30,19,207,37,42,51,133,37*79
$GPGSV,4,4,16,50,51,133,39,193,47,133,41,194,36,174,44,195,66,053,41*4D
$GSENSORD,0.120,0.430,-0.250
$GPRMC,024053.000,A,2447.3708,N,12102.8827,E,42.04,116.06,100819,,,A*51
$GPGGA,024053.000,2447.3708,N,12102.8827,E,1,12,0.6,66.8,M,16.4,M,,0000*6E
$GPGSA,A,3,28,03,22,01,42,195,50,194,193,30,11,17,1.2,0.6,1.0*02
$GPGSV,4,1,16,01,23,040,37,03,50,071,34,06,35,258,40,08,05,099,40*7E
$GPGSV,4,2,16,11,20,059,42,17,40,329,26,19,28,313,34,22,33,052,38*76
$GPGSV,4,3,16,23,08,121,46,28,82,303,42,30,19,207,35,42,51,133,37*79
$GPGSV,4,4,16,50,51,133,39,193,47,133,41,194,36,174,44,195,66,053,41*4D
$GSENSORD,0.120,0.430,0.060
$GPRMC,024054.000,A,2447.3655,N,12102.8944,E,42.88,116.41,100819,,,A*5C
$GPGGA,024054.000,2447.3655,N,12102.8944,E,1,12,0.6,67.0,M,16.4,M,,0000*6D
$GPGSA,A,3,28,03,22,01,42,195,50,194,193,30,11,17,1.2,0.6,1.0*02
$GPGSV,4,1,16,01,23,040,37,03,50,071,34,06,35,258,40,08,05,099,43*7D
$GPGSV,4,2,16,11,20,059,41,17,40,329,28,19,28,313,34,22,33,052,38*7B
$GPGSV,4,3,16,23,08,121,47,28,82,303,42,30,19,207,37,42,51,133,37*7A
$GPGSV,4,4,16,50,51,133,38,193,47,133,41,194,36,174,44,195,66,053,41*4C
$GSENSORD,0.250,0.430,0.060
$GPRMC,024055.000,A,2447.3601,N,12102.9063,E,43.73,116.60,100819,,,A*57
$GPGGA,024055.000,2447.3601,N,12102.9063,E,1,12,0.6,67.3,M,16.4,M,,0000*63
$GPGSA,A,3,28,03,22,01,42,195,50,194,193,30,11,17,1.2,0.6,1.0*02
$GPGSV,4,1,16,01,23,040,37,03,50,071,34,06,35,258,40,09,04,157,42*7F
$GPGSV,4,2,16,11,20,059,42,17,40,329,27,19,28,313,34,22,33,052,40*78
$GPGSV,4,3,16,23,08,121,45,28,82,303,42,30,19,207,37,42,51,133,37*78
$GPGSV,4,4,16,50,51,133,38,193,47,133,41,194,36,174,44,195,66,053,41*4C
$GSENSORD,0.310,0.000,-0.180
$GPRMC,024056.000,A,2447.3545,N,12102.9183,E,44.48,117.25,100819,,,A*57
$GPGGA,024056.000,2447.3545,N,12102.9183,E,1,12,0.6,67.5,M,16.4,M,,0000*6A
$GPGSA,A,3,28,03,22,01,42,195,50,194,193,30,11,17,1.2,0.6,1.0*02
$GPGSV,4,1,16,01,23,040,37,03,50,071,35,06,35,258,40,09,04,157,41*7D
$GPGSV,4,2,16,11,20,059,43,17,40,329,27,19,28,313,33,22,33,052,39*70
$GPGSV,4,3,16,23,08,121,44,28,82,303,42,30,19,207,37,42,51,133,36*78
$GPGSV,4,4,16,50,51,133,38,193,47,133,41,194,36,174,44,195,66,053,40*4D
$GSENSORD,0.180,0.430,-0.120
$GPRMC,024057.000,A,2447.3487,N,12102.9305,E,45.12,117.61,100819,,,A*5B
$GPGGA,024057.000,2447.3487,N,12102.9305,E,1,12,0.6,67.9,M,16.4,M,,0000*64
$GPGSA,A,3,28,03,22,01,42,195,50,194,193,30,11,17,1.2,0.6,1.0*02
$GPGSV,4,1,16,01,23,040,37,03,50,071,35,06,35,258,40,09,04,157,42*7E
$GPGSV,4,2,16,11,20,059,43,17,40,329,27,19,28,313,33,22,33,052,38*71
$GPGSV,4,3,16,23,08,121,46,28,82,303,42,30,19,207,38,42,51,133,37*74
$GPGSV,4,4,16,50,51,133,39,193,47,133,41,194,36,174,45,195,66,053,41*4C
$GSENSORD,0.250,0.430,0.120
$GPRMC,024058.000,A,2447.3428,N,12102.9428,E,45.76,118.16,100819,,,A*54
$GPGGA,024058.000,2447.3428,N,12102.9428,E,1,12,0.6,68.4,M,16.4,M,,0000*64
$GPGSA,A,3,28,03,22,01,42,195,50,194,193,30,11,17,1.2,0.6,1.0*02
$GPGSV,4,1,16,01,23,040,36,03,50,071,35,06,35,258,40,09,04,157,40*7D
$GPGSV,4,2,16,11,20,059,43,17,40,329,29,19,28,313,34,22,33,052,39*79
$GPGSV,4,3,16,23,08,121,48,28,82,303,42,30,19,207,39,42,51,133,37*7B
$GPGSV,4,4,16,50,51,133,39,193,47,133,42,194,36,174,45,195,66,053,41*4F
$GSENSORD,0.120,0.370,0.120
$GPRMC,024059.000,A,2447.3367,N,12102.9552,E,46.38,118.84,100819,,,A*57
$GPGGA,024059.000,2447.3367,N,12102.9552,E,1,12,0.6,68.8,M,16.4,M,,0000*69
$GPGSA,A,3,28,03,22,01,42,195,50,194,193,30,11,17,1.2,0.6,1.0*02
$GPGSV,4,1,16,01,23,040,35,03,50,071,35,06,35,258,40,09,04,157,40*7E
$GPGSV,4,2,16,11,20,059,43,17,40,329,31,19,28,313,34,22,33,052,39*70
$GPGSV,4,3,16,23,08,121,45,28,82,303,42,30,19,207,39,42,51,133,38*79
$GPGSV,4,4,16,50,51,133,39,193,47,133,41,194,36,174,45,195,66,053,41*4C
$GSENSORD,0.180,0.370,-0.120
$GPRMC,024100.000,A,2447.3302,N,12102.9676,E,46.91,119.70,100819,,,A*55
$GPGGA,024100.000,2447.3302,N,12102.9676,E,1,12,0.6,69.4,M,16.4,M,,0000*6F
$GPGSA,A,3,28,03,22,01,42,195,50,194,193,30,11,17,1.2,0.6,1.0*02
$GPGSV,4,1,16,01,23,040,30,03,50,071,35,06,35,258,39,08,05,099,34*75
$GPGSV,4,2,16,11,20,059,44,17,40,329,33,19,28,313,34,22,33,052,40*7B
$GPGSV,4,3,16,23,08,121,44,28,82,303,42,30,19,207,38,42,51,133,38*79
$GPGSV,4,4,16,50,51,133,39,193,47,133,41,194,36,174,45,195,66,053,41*4C
$GSENSORD,0.180,0.430,-0.180
$GPRMC,024101.000,A,2447.3236,N,12102.9801,E,47.44,120.76,100819,,,A*59
$GPGGA,024101.000,2447.3236,N,12102.9801,E,1,12,0.6,69.9,M,16.4,M,,0000*6B
$GPGSA,A,3,28,03,22,01,42,195,50,194,193,30,11,17,1.2,0.6,1.0*02
$GPGSV,4,1,16,01,23,040,32,03,50,071,35,06,35,258,38,09,04,157,37*76
$GPGSV,4,2,16,11,20,059,42,17,40,329,35,19,28,313,35,22,33,052,40*7A
$GPGSV,4,3,16,23,08,120,45,28,82,303,42,30,19,207,39,42,51,133,38*78
$GPGSV,4,4,16,50,51,133,40,193,47,133,42,194,36,174,44,195,66,053,40*41
$GSENSORD,0.180,0.430,-0.180
$GPRMC,024102.000,A,2447.3167,N,12102.9925,E,47.85,121.35,100819,,,A*51
$GPGGA,024102.000,2447.3167,N,12102.9925,E,1,12,0.6,70.4,M,16.4,M,,0000*6D
$GPGSA,A,3,28,03,22,01,42,195,50,194,193,30,11,17,1.2,0.6,1.0*02
$GPGSV,4,1,16,01,23,040,31,03,50,071,35,06,35,258,37,09,04,157,39*74
$GPGSV,4,2,16,11,20,059,41,17,40,329,38,19,28,313,35,22,33,052,42*76
$GPGSV,4,3,16,23,08,120,47,28,82,303,42,30,19,207,41,42,51,133,38*75
$GPGSV,4,4,16,50,51,133,40,193,47,133,42,194,36,174,44,195,66,053,41*40
$GSENSORD,0.120,0.430,0.120
$GPRMC,024103.000,A,2447.3096,N,12103.0051,E,48.34,121.92,100819,,,A*55
$GPGGA,024103.000,2447.3096,N,12103.0051,E,1,12,0.6,71.1,M,16.4,M,,0000*65
$GPGSA,A,3,28,03,22,01,42,195,50,194,193,30,11,17,1.2,0.6,1.0*02
$GPGSV,4,1,16,01,23,040,32,03,50,071,36,06,35,258,35,09,04,157,35*7A
$GPGSV,4,2,16,11,20,059,42,17,40,329,39,19,28,313,36,22,33,052,42*77
$GPGSV,4,3,16,23,08,120,48,28,82,303,42,30,19,207,40,42,51,133,38*7B
$GPGSV,4,4,16,50,51,133,39,193,47,133,42,194,36,174,43,195,66,053,41*49
$GSENSORD,0.180,0.430,-0.250
$GPRMC,024104.000,A,2447.3023,N,12103.0177,E,48.94,122.51,100819,,,A*5F
$GPGGA,024104.000,2447.3023,N,12103.0177,E,1,12,0.6,71.5,M,16.4,M,,0000*6D
$GPGSA,A,3,28,03,22,01,42,195,50,194,193,30,11,17,1.2,0.6,1.0*02
$GPGSV,4,1,16,01,23,040,26,03,50,071,36,06,35,258,36,09,04,157,33*7A
$GPGSV,4,2,16,11,20,059,38,17,40,329,41,19,28,313,36,22,33,052,42*75
$GPGSV,4,3,16,23,08,120,48,28,82,303,42,30,19,207,40,42,51,133,38*7B
$GPGSV,4,4,16,50,51,133,40,193,47,133,41,194,36,174,43,195,66,053,41*44
$GSENSORD,0.250,0.370,-0.060
$GPRMC,024105.000,A,2447.2948,N,12103.0303,E,49.44,123.48,100819,,,A*5F
$GPGGA,024105.000,2447.2948,N,12103.0303,E,1,12,0.6,71.9,M,16.4,M,,0000*64
$GPGSA,A,3,28,03,22,01,42,195,50,194,193,30,11,17,1.2,0.6,1.0*02
$GPGSV,4,1,16,01,23,040,31,03,50,071,35,06,35,258,35,08,05,099,38*74
$GPGSV,4,2,16,11,20,059,43,17,40,329,42,19,28,313,36,22,33,052,43*7B
$GPGSV,4,3,16,23,08,120,48,28,82,303,42,30,19,207,41,42,51,133,37*75
$GPGSV,4,4,16,50,51,133,40,193,47,133,42,194,36,174,43,195,66,053,41*47
$GSENSORD,0.120,0.430,-0.180
$GPRMC,024106.000,A,2447.2870,N,12103.0429,E,49.92,124.37,100819,,,A*5D
$GPGGA,024106.000,2447.2870,N,12103.0429,E,1,12,0.6,72.3,M,16.4,M,,0000*6B
$GPGSA,A,3,28,03,22,01,42,195,50,194,193,30,11,17,1.2,0.6,1.0*02
$GPGSV,4,1,16,01,23,040,31,03,50,071,35,06,35,258,35,08,05,099,36*7A
$GPGSV,4,2,16,11,20,059,41,17,40,329,42,19,28,313,37,22,33,052,43*78
$GPGSV,4,3,16,23,08,120,48,28,82,301,42,30,19,207,42,42,51,133,38*7B
$GPGSV,4,4,16,50,51,133,40,193,47,133,42,194,36,174,43,195,66,053,41*47
$GSENSORD,0.120,0.370,-0.180
$GPRMC,024107.000,A,2447.2791,N,12103.0555,E,49.96,124.68,100819,,,A*58
$GPGGA,024107.000,2447.2791,N,12103.0555,E,1,12,0.6,72.6,M,16.4,M,,0000*65
$GPGSA,A,3,28,03,22,01,42,195,50,194,193,30,11,17,1.2,0.6,1.0*02
$GPGSV,4,1,16,01,23,040,32,03,50,071,36,06,35,258,35,08,05,099,33*7F
$GPGSV,4,2,16,11,20,059,42,17,40,329,43,19,28,313,36,22,33,052,43*7B
$GPGSV,4,3,16,23,08,120,47,28,82,301,42,30,19,207,38,42,51,133,38*79
$GPGSV,4,4,16,50,51,133,39,193,47,133,42,194,36,174,43,195,66,053,41*49
$GSENSORD,0.180,0.430,-0.180
$GPRMC,024108.000,A,2447.2709,N,12103.0680,E,50.70,125.91,100819,,,A*5A
$GPGGA,024108.000,2447.2709,N,12103.0680,E,1,12,0.6,72.7,M,16.4,M,,0000*61
$GPGSA,A,3,28,03,22,01,42,195,50,194,193,30,11,17,1.2,0.6,1.0*02
$GPGSV,4,1,16,01,23,040,33,03,50,071,36,06,35,258,36,08,05,099,40*79
$GPGSV,4,2,16,11,20,059,40,17,40,329,43,19,28,313,36,22,33,052,44*7E
$GPGSV,4,3,16,23,08,120,45,28,82,301,42,30,19,207,41,42,51,133,38*75
$GPGSV,4,4,16,50,51,133,39,193,47,133,43,194,36,174,42,195,66,053,41*49
$GSENSORD,0.120,0.430,0.120
$GPRMC,024109.000,A,2447.2625,N,12103.0804,E,50.82,127.10,100819,,,A*50
$GPGGA,024109.000,2447.2625,N,12103.0804,E,1,12,0.6,72.8,M,16.4,M,,0000*62
$GPGSA,A,3,28,03,22,01,42,195,50,194,193,30,11,17,1.2,0.6,1.0*02
$GPGSV,4,1,16,01,23,040,29,03,50,071,34,06,35,258,36,08,05,099,40*70
$GPGSV,4,2,16,11,20,059,39,17,40,329,42,19,28,313,35,22,33,052,43*75
$GPGSV,4,3,16,23,08,120,45,28,82,301,42,30,19,207,40,42,51,133,37*7B
$GPGSV,4,4,16,50,51,133,39,193,47,133,43,194,36,174,44,195,66,053,42*4C
$GSENSORD,0.000,0.370,-0.120
$GPRMC,024110.000,A,2447.2539,N,12103.0926,E,50.17,127.86,100819,,,A*54
$GPGGA,024110.000,2447.2539,N,12103.0926,E,1,12,0.6,72.6,M,16.4,M,,0000*6B
$GPGSA,A,3,28,03,22,01,42,195,50,194,193,30,11,17,1.2,0.6,1.0*02
$GPGSV,4,1,16,01,23,040,31,03,50,071,37,06,35,258,37,08,05,099,37*7B
$GPGSV,4,2,16,11,20,059,39,17,40,329,42,19,28,313,34,22,33,052,42*75
$GPGSV,4,3,16,23,08,120,44,28,82,301,42,30,19,207,38,42,51,133,38*7A
$GPGSV,4,4,16,50,51,133,39,193,47,133,43,194,36,174,44,195,66,053,42*4C
$GSENSORD,0.120,0.430,-0.250
$GPRMC,024111.000,A,2447.2453,N,12103.1045,E,49.31,128.58,100819,,,A*55
$GPGGA,024111.000,2447.2453,N,12103.1045,E,1,12,0.6,72.6,M,16.4,M,,0000*6A
$GPGSA,A,3,28,03,22,01,42,195,50,194,193,30,11,17,1.2,0.6,1.0*02
$GPGSV,4,1,16,01,23,040,21,03,50,071,34,06,35,258,34,08,05,099,36*7B
$GPGSV,4,2,16,11,20,059,31,17,40,329,37,19,28,313,27,22,33,052,36*7E
$GPGSV,4,3,16,23,08,120,39,28,82,301,38,30,19,207,33,42,51,133,35*7B
$GPGSV,4,4,16,50,51,133,35,193,47,133,38,194,36,174,39,195,66,053,38*4B
$GSENSORD,0.060,0.430,-0.180
$GPRMC,024112.000,A,2447.2368,N,12103.1160,E,48.50,129.23,100819,,,A*54
$GPGGA,024112.000,2447.2368,N,12103.1160,E,1,12,0.6,72.5,M,16.4,M,,0000*63
$GPGSA,A,3,28,03,22,01,42,195,50,194,193,30,11,17,1.2,0.6,1.0*02
$GPGSV,4,1,16,01,23,040,20,03,50,071,32,06,35,258,33,08,05,099,30*7D
$GPGSV,4,2,16,11,20,059,32,17,40,329,35,19,28,313,27,22,33,052,33*7A
$GPGSV,4,3,16,23,08,120,35,28,82,301,35,30,19,207,29,42,51,133,31*75
$GPGSV,4,4,16,50,51,133,34,193,47,133,36,194,36,174,37,195,66,053,36*44
$GSENSORD,0.060,0.430,-0.120
$GPRMC,024113.000,A,2447.2282,N,12103.1273,E,47.74,130.03,100819,,,A*52
$GPGGA,024113.000,2447.2282,N,12103.1273,E,1,12,0.6,72.5,M,16.4,M,,0000*66
$GPGSA,A,3,28,03,22,01,42,195,50,194,193,30,11,17,1.2,0.6,1.0*02
$GPGSV,4,1,16,01,23,040,20,03,50,071,32,06,35,258,33,08,05,099,34*79
$GPGSV,4,2,16,11,20,059,32,17,40,329,35,19,28,313,26,22,33,052,33*7B
$GPGSV,4,3,16,23,08,120,35,28,82,301,35,30,19,207,33,42,51,133,32*7D
$GPGSV,4,4,16,50,51,133,31,193,47,133,36,194,36,174,35,195,66,053,36*43
$GSENSORD,0.000,0.370,-0.120
$GPRMC,024114.000,A,2447.2197,N,12103.1381,E,46.78,130.86,100819,,,A*5E
$GPGGA,024114.000,2447.2197,N,12103.1381,E,1,12,0.6,72.2,M,16.4,M,,0000*6D
$GPGSA,A,3,28,03,22,01,42,195,50,194,193,30,11,17,1.2,0.6,1.0*02
$GPGSV,4,1,16,01,23,040,29,03,50,071,41,06,35,258,39,08,05,099,38*72
$GPGSV,4,2,16,11,20,059,39,17,40,329,42,19,28,313,31,22,33,052,37*72
$GPGSV,4,3,16,23,08,120,41,28,82,301,41,30,19,207,40,42,51,133,38*73
$GPGSV,4,4,16,50,51,133,39,193,47,133,43,194,36,174,42,195,66,053,42*4A
$GSENSORD,0.060,0.370,-0.180
$GPRMC,024115.000,A,2447.2112,N,12103.1487,E,45.84,131.62,100819,,,A*58
$GPGGA,024115.000,2447.2112,N,12103.1487,E,1,12,0.6,72.0,M,16.4,M,,0000*62
$GPGSA,A,3,28,03,22,01,42,195,50,194,193,30,11,17,1.2,0.6,1.0*02
$GPGSV,4,1,16,01,23,040,34,03,50,071,41,06,35,258,40,08,05,099,40*7F
$GPGSV,4,2,16,11,20,059,37,17,40,329,44,19,28,313,31,22,33,052,37*7A
$GPGSV,4,3,16,23,08,120,42,28,82,301,43,30,19,207,40,42,51,133,37*7D
$GPGSV,4,4,16,50,51,133,39,193,47,133,44,194,36,174,43,195,66,053,44*4A
$GSENSORD,0.060,0.370,-0.060
$GPRMC,024116.000,A,2447.2028,N,12103.1589,E,44.77,132.37,100819,,,A*52
$GPGGA,024116.000,2447.2028,N,12103.1589,E,1,12,0.6,71.8,M,16.4,M,,0000*6D
$GPGSA,A,3,28,03,22,01,42,195,50,194,193,30,11,17,1.2,0.6,1.0*02
$GPGSV,4,1,16,01,23,040,29,03,50,071,42,06,35,258,39,08,05,099,35*7C
$GPGSV,4,2,16,11,20,059,36,17,40,329,43,19,28,313,30,22,33,052,33*79
$GPGSV,4,3,16,23,08,120,41,28,82,301,42,30,19,207,37,42,51,133,37*7F
$GPGSV,4,4,16,50,51,133,38,193,47,133,43,194,36,174,41,195,66,053,43*49
$GSENSORD,0.060,0.430,-0.250
$GPRMC,024117.000,A,2447.1944,N,12103.1688,E,43.77,132.79,100819,,,A*5C
$GPGGA,024117.000,2447.1944,N,12103.1688,E,1,12,0.6,71.7,M,16.4,M,,0000*61
$GPGSA,A,3,28,03,22,01,42,195,50,194,193,30,11,17,1.2,0.6,1.0*02
$GPGSV,4,1,16,01,23,040,33,03,50,071,41,06,35,258,38,09,04,157,30*73
$GPGSV,4,2,16,11,20,059,36,17,40,329,43,19,28,313,30,22,33,052,32*78
$GPGSV,4,3,16,23,08,120,39,28,82,301,42,30,19,207,38,42,51,133,35*7D
$GPGSV,4,4,16,50,51,133,37,193,47,133,43,194,36,174,40,195,66,053,43*47
$GSENSORD,0.180,0.430,-0.120
$GPRMC,024118.000,A,2447.1862,N,12103.1784,E,43.08,133.38,100819,,,A*57
$GPGGA,024118.000,2447.1862,N,12103.1784,E,1,12,0.6,71.5,M,16.4,M,,0000*64
$GPGSA,A,3,28,03,22,01,42,195,50,194,193,30,11,17,1.2,0.6,1.0*02
$GPGSV,4,1,16,01,23,040,32,03,50,071,41,06,35,258,39,08,05,099,32*72
$GPGSV,4,2,16,11,20,059,38,17,40,329,43,19,28,313,30,22,33,052,31*75
$GPGSV,4,3,16,23,08,120,36,28,82,301,42,30,19,207,38,42,51,133,36*71
$GPGSV,4,4,16,50,51,133,38,193,47,133,43,194,36,174,39,195,66,053,43*46
$GSENSORD,0.000,0.370,-0.120
$GPRMC,024119.000,A,2447.1779,N,12103.1877,E,42.38,134.34,100819,,,A*59
$GPGGA,024119.000,2447.1779,N,12103.1877,E,1,12,0.6,71.5,M,16.4,M,,0000*63
$GPGSA,A,3,28,03,22,01,42,195,50,194,193,30,11,17,1.2,0.6,1.0*02
$GPGSV,4,1,16,01,23,040,24,03,50,071,41,06,35,258,38,08,05,099,37*71
$GPGSV,4,2,16,11,20,059,38,17,40,329,42,19,28,313,29,22,33,052,25*79
$GPGSV,4,3,16,23,08,120,39,28,82,301,41,30,19,207,36,42,51,133,36*73
$GPGSV,4,4,16,50,51,133,37,193,47,133,42,194,36,174,38,195,66,053,42*48
$GSENSORD,0.060,0.370,-0.120
$GPRMC,024120.000,A,2447.1697,N,12103.1968,E,41.52,135.08,100819,,,A*5C
$GPGGA,024120.000,2447.1697,N,12103.1968,E,1,12,0.6,71.6,M,16.4,M,,0000*64
$GPGSA,A,3,28,03,22,01,42,195,50,194,193,30,11,17,1.2,0.6,1.0*02
$GPGSV,4,1,16,01,23,040,24,03,50,071,39,06,35,258,37,08,05,099,36*70
$GPGSV,4,2,16,11,20,059,37,17,40,329,40,19,28,313,28,22,33,052,24*74
$GPGSV,4,3,16,23,08,120,37,28,82,301,39,30,19,207,33,42,51,133,34*75
$GPGSV,4,4,16,50,51,133,36,193,47,133,39,194,36,174,37,195,66,053,40*48
$GSENSORD,0.000,0.370,-0.060
$GPRMC,024121.000,A,2447.1615,N,12103.2056,E,40.84,135.88,100819,,,A*52
$GPGGA,024121.000,2447.1615,N,12103.2056,E,1,12,0.6,71.6,M,16.4,M,,0000*68
$GPGSA,A,3,28,03,22,01,42,195,50,194,193,30,11,17,1.2,0.6,1.0*02
$GPGSV,4,1,16,01,23,040,24,03,50,071,42,06,35,258,35,08,05,099,38*70
$GPGSV,4,2,16,11,20,059,36,17,40,329,42,19,28,313,28,22,33,052,24*77
$GPGSV,4,3,16,23,08,120,34,28,82,301,40,30,19,207,29,42,51,133,35*72
$GPGSV,4,4,16,50,51,133,36,193,47,133,41,194,36,174,39,195,66,053,41*48
$GSENSORD,0.120,0.430,-0.180
$GPRMC,024122.000,A,2447.1533,N,12103.2141,E,40.14,136.50,100819,,,A*5E
$GPGGA,024122.000,2447.1533,N,12103.2141,E,1,12,0.6,71.7,M,16.4,M,,0000*6A
$GPGSA,A,3,28,03,22,01,42,195,50,194,193,30,11,17,1.2,0.6,1.0*02
$GPGSV,4,1,16,01,23,040,23,03,50,071,41,06,35,258,38,08,05,099,37*76
$GPGSV,4,2,16,11,20,059,35,17,40,329,40,19,28,313,27,22,33,052,26*7B
$GPGSV,4,3,16,23,08,120,38,28,82,301,40,30,19,207,29,42,51,133,34*7F
$GPGSV,4,4,16,50,51,133,35,193,47,133,39,194,36,174,37,195,66,053,40*4B
$GSENSORD,0.060,0.430,-0.120
$GPRMC,024123.000,A,2447.1452,N,12103.2224,E,39.59,136.67,100819,,,A*5A
$GPGGA,024123.000,2447.1452,N,12103.2224,E,1,12,0.6,71.7,M,16.4,M,,0000*6D
$GPGSA,A,3,28,03,22,01,42,195,50,194,193,30,11,17,1.2,0.6,1.0*02
